City,Country,Lat,Lng,Current Description,Humidity,Max Temp,Cloudiness,Wind Speed
Great Yarmouth,GB,52.6083,1.7305,overcast clouds,75,39.45,100,12.97
Nikki,BJ,9.9401,3.2108,few clouds,19,82.99,17,9.31
Pevek,RU,69.7008,170.3133,light snow,97,-0.74,100,9.46
Bredasdorp,ZA,-34.5322,20.0403,clear sky,36,77.05,5,8.48
Port Blair,IN,11.6667,92.75,moderate rain,80,80.51,100,12.71
Kapaa,US,22.0752,-159.319,light rain,87,79.12,100,18.41
Honningsvag,NO,70.9821,25.9704,light rain,87,38.95,75,16.11
Vaini,TO,-21.2,-175.2,broken clouds,94,77.16,75,2.3
Laguna,US,38.421,-121.4238,clear sky,91,45.01,0,3.44
Arraial Do Cabo,BR,-22.9661,-42.0278,broken clouds,88,73.26,75,8.05
Mar Del Plata,AR,-38.0023,-57.5575,broken clouds,74,67.08,75,14.97
Rikitea,PF,-23.1203,-134.9692,light rain,82,74.98,9,21.21
Bahia Blanca,AR,-38.7196,-62.2724,clear sky,44,69.3,0,5.01
Veliki Trnovac,RS,42.4767,21.7405,overcast clouds,83,47.26,100,4.32
Hobart,AU,-42.8794,147.3294,overcast clouds,82,55.26,100,6.91
Merauke,ID,-8.4667,140.3333,overcast clouds,67,82.58,100,14.63
Punta Arenas,CL,-53.15,-70.9167,few clouds,75,33.91,20,9.22
Herat,AF,34.5,62.0,light rain,87,39.15,100,0.27
Kodinsk,RU,58.6881,99.1844,light snow,92,10.47,100,13.15
Lebu,CL,-37.6167,-73.65,overcast clouds,78,56.17,98,6.06
Hilo,US,19.7297,-155.09,heavy intensity rain,95,74.25,100,5.75
Bemidji,US,47.4736,-94.8803,clear sky,81,3.9,0,0.0
Abnub,EG,27.2696,31.1511,clear sky,43,68.34,0,8.03
Richards Bay,ZA,-28.783,32.0377,overcast clouds,63,80.89,100,9.4
Provideniya,RU,64.3833,-173.3,overcast clouds,68,24.76,100,14.16
Pandan Niog,PH,6.2282,120.5631,overcast clouds,78,82.51,100,9.84
Albany,US,42.6001,-73.9662,overcast clouds,94,55.31,100,1.99
Kaitangata,NZ,-46.2817,169.8464,broken clouds,76,52.07,61,15.28
Nikolskoye,RU,59.7035,30.7861,light snow,92,22.91,100,10.6
Saskylakh,RU,71.9167,114.0833,few clouds,99,-37.32,20,3.96
Waipawa,NZ,-41.4122,175.5153,overcast clouds,63,49.95,100,10.33
Busselton,AU,-33.65,115.3333,clear sky,40,75.11,3,15.68
Sayyan,YE,15.1718,44.3244,clear sky,21,67.05,1,2.66
Ushuaia,AR,-54.8,-68.3,clear sky,60,37.06,0,4.61
Hermanus,ZA,-34.4187,19.2345,clear sky,57,71.8,1,9.62
Mataura,NZ,-46.1927,168.8643,overcast clouds,70,53.46,89,5.55
Pisco,PE,-13.7,-76.2167,smoke,88,61.02,97,3.44
Bluff,NZ,-46.6,168.3333,overcast clouds,70,57.0,100,12.44
Qaanaaq,GL,77.484,-69.3632,overcast clouds,65,26.51,100,20.24
Werda,BW,-25.2667,23.2833,clear sky,31,87.84,0,14.72
Rabaul,PG,-4.1967,152.1721,light rain,77,81.86,100,0.69
Lagoa,PT,39.05,-27.9833,overcast clouds,73,58.17,100,35.79
Pop,UZ,40.8736,71.1089,overcast clouds,57,39.27,100,0.72
Chatham,GB,51.3789,0.5279,few clouds,89,39.07,15,7.0
Ossora,RU,59.2353,163.0719,broken clouds,84,10.4,82,7.0
Praxedis Guerrero,MX,31.3667,-106.0167,overcast clouds,47,61.61,100,0.45
Rocha,UY,-34.4833,-54.3333,light rain,81,58.41,0,6.2
Port Alfred,ZA,-33.5906,26.891,clear sky,73,75.18,0,5.99
Mogok,MM,22.9167,96.5,clear sky,46,72.77,1,2.26
Cape Town,ZA,-33.9258,18.4232,few clouds,56,76.12,20,9.22
Arequipa,PE,-16.3989,-71.535,overcast clouds,64,57.9,98,0.78
Ixtapa,MX,20.7,-105.2,clear sky,85,74.23,1,3.02
Dikson,RU,73.5069,80.5464,overcast clouds,96,-11.56,100,20.74
Vila,PT,42.0304,-8.1588,overcast clouds,95,41.88,99,4.03
Sinnamary,GF,5.3833,-52.95,scattered clouds,93,75.49,35,7.72
Quesnel,CA,52.9999,-122.5029,overcast clouds,93,19.9,100,2.3
Atuona,PF,-9.8,-139.0333,light rain,80,77.38,9,19.6
Rawson,AR,-43.3002,-65.1023,overcast clouds,69,59.68,100,5.19
Margate,GB,51.3813,1.3862,few clouds,91,38.7,21,1.01
Meulaboh,ID,4.1363,96.1285,overcast clouds,83,78.58,100,5.35
Yellowknife,CA,62.456,-114.3525,light snow,76,-17.88,100,10.36
Madera,US,37.1666,-119.8343,broken clouds,86,47.07,55,2.98
Gillette,US,44.2911,-105.5022,mist,87,9.95,100,1.99
Makeni,SL,8.8833,-12.05,scattered clouds,79,78.49,50,0.22
Brae,GB,60.3964,-1.353,light rain,69,36.88,100,25.34
Georgetown,MY,5.4112,100.3354,thunderstorm,80,85.95,20,5.75
Marquette,US,46.5333,-87.6335,overcast clouds,80,28.17,100,6.64
Mahebourg,MU,-20.4081,57.7,light rain,78,83.25,75,11.5
Riyadh,SA,24.6877,46.7219,light rain,26,69.94,78,3.15
Barrow,US,71.2906,-156.7887,light snow,92,12.22,100,9.22
Bengkulu,ID,-3.8004,102.2655,moderate rain,87,79.56,100,11.68
Jambi,ID,-1.6,103.6167,moderate rain,71,84.81,97,1.9
Kruisfontein,ZA,-34.0033,24.7314,clear sky,36,81.36,2,9.64
Pacific Grove,US,36.6177,-121.9166,clear sky,92,44.82,0,6.91
Aksu,CN,41.1231,80.2644,overcast clouds,27,33.13,96,2.1
Matay,EG,28.419,30.7792,few clouds,48,67.42,15,6.42
Cidreira,BR,-30.1811,-50.2056,clear sky,83,68.85,2,3.89
Ponta Delgada,PT,37.7333,-25.6667,heavy intensity rain,77,59.72,40,27.63
Dunedin,NZ,-45.8742,170.5036,overcast clouds,10,48.79,90,1.99
Ojinaga,MX,29.5667,-104.4167,scattered clouds,100,61.75,40,5.75
Senanga,ZM,-16.1167,23.2667,overcast clouds,46,81.82,88,9.17
Paro,BT,27.4305,89.4133,few clouds,51,57.63,14,6.73
Benjamin Hill,MX,30.1667,-111.1,few clouds,57,56.03,15,5.79
Norman Wells,CA,65.282,-126.8329,few clouds,67,-36.36,20,4.61
Rabat,MA,33.9911,-6.8401,scattered clouds,77,64.47,40,5.75
Lavrentiya,RU,65.5833,-171.0,clear sky,70,20.66,8,10.09
Constitucion,CL,-35.3333,-72.4167,clear sky,60,56.95,0,6.17
Fairbanks,US,64.8378,-147.7164,light snow,88,17.56,100,0.0
Kaspiysk,RU,42.8816,47.6392,light rain,75,42.98,40,20.13
Torbay,CA,47.6666,-52.7314,fog,97,36.75,100,6.91
Rovnoye,RU,50.7765,46.0509,clear sky,56,17.6,7,10.4
Rio Gallegos,AR,-51.6226,-69.2181,clear sky,75,35.65,0,6.91
Hamilton,US,39.1834,-84.5333,mist,97,53.94,100,1.01
Ponta Do Sol,PT,32.6667,-17.1,light rain,91,68.0,96,13.89
Manaure,CO,11.7751,-72.4445,clear sky,80,74.55,5,5.75
Thompson,CA,55.7435,-97.8558,few clouds,75,-25.44,20,5.75
Bahia Honda,CU,22.9036,-83.1592,clear sky,85,71.29,0,7.29
Huarmey,PE,-10.0681,-78.1522,overcast clouds,91,64.58,96,6.22
Praia Da Vitoria,PT,38.7333,-27.0667,light rain,94,57.45,75,30.67
Khatanga,RU,71.9667,102.5,overcast clouds,95,-17.52,86,13.71
Great Falls,US,47.5002,-111.3008,clear sky,88,-4.34,0,4.61
Hobyo,SO,5.3505,48.5268,broken clouds,69,82.24,57,18.37
Miyako,JP,39.6367,141.9525,broken clouds,77,39.87,57,3.13
Pontianak,ID,-0.0333,109.3333,light rain,83,82.38,40,5.75
Komsomolskiy,UZ,40.4272,71.7189,overcast clouds,63,38.01,100,2.13
Murray Bridge,AU,-35.1167,139.2667,broken clouds,55,58.12,67,20.65
Jamestown,US,42.097,-79.2353,fog,78,46.04,100,3.44
Port Shepstone,ZA,-30.7414,30.455,broken clouds,75,75.88,81,21.14
Hambantota,LK,6.1241,81.1185,overcast clouds,71,82.08,100,2.59
Hasaki,JP,35.7333,140.8333,overcast clouds,45,52.2,100,8.25
Ruidoso,US,33.3317,-105.673,scattered clouds,70,46.51,40,9.22
Butaritari,KI,3.0707,172.7902,light rain,82,80.38,100,12.21
East London,ZA,-33.0153,27.9116,clear sky,61,79.74,0,12.66
Rorvik,NO,64.8621,11.2373,shower rain,93,35.71,75,26.46
Saint-Philippe,RE,-21.3585,55.7679,clear sky,71,87.12,8,12.84
Boysun,UZ,38.2061,67.1986,light rain,76,39.4,100,2.55
Rajauri,IN,33.3833,74.3,clear sky,19,67.91,10,5.17
Vila Franca Do Campo,PT,37.7167,-25.4333,light rain,81,59.41,94,21.23
Ust-Nera,RU,64.5667,143.2,broken clouds,98,-45.99,77,3.13
Grand Forks,US,47.9417,-97.4337,overcast clouds,64,-7.67,100,9.22
Otjimbingwe,NA,-22.35,16.1333,clear sky,15,80.1,0,4.0
Harper,LR,4.375,-7.7169,broken clouds,78,81.19,54,5.3
Rincon,US,32.296,-81.2354,haze,90,60.76,0,0.0
Ilulissat,GL,69.2167,-51.1,broken clouds,69,32.02,75,11.5
Tramore,IE,52.1624,-7.1524,broken clouds,81,37.63,75,9.22
Castro,BR,-24.7911,-50.0119,broken clouds,98,62.8,65,2.17
Kalakamati,BW,-20.5929,27.3121,light rain,45,81.19,71,12.48
Narsaq,GL,60.9167,-46.05,clear sky,76,26.82,10,7.14
Xinxiang,CN,35.3089,113.8672,scattered clouds,43,48.29,29,3.29
Tasiilaq,GL,65.6145,-37.6368,broken clouds,90,28.56,67,3.91
Hithadhoo,MV,-0.6,73.0833,moderate rain,76,81.59,40,12.33
Faanui,PF,-16.4833,-151.75,light rain,76,80.55,21,16.6
Saint George,US,37.1041,-113.5841,clear sky,67,44.44,0,5.75
Camacha,PT,33.0833,-16.3333,few clouds,77,63.82,20,8.05
Flinders,AU,-34.5833,150.8552,overcast clouds,47,76.17,100,5.01
Rognan,NO,67.0953,15.3878,broken clouds,80,29.88,67,7.54
Piove Di Sacco,IT,45.2977,12.0368,broken clouds,92,43.05,71,2.3
Port Elizabeth,ZA,-33.918,25.5701,clear sky,47,79.09,0,5.75
Cherskiy,RU,68.75,161.3,overcast clouds,98,-11.83,100,8.12
Nuuk,GL,64.1835,-51.7216,broken clouds,69,36.21,75,27.63
Coihaique,CL,-45.5752,-72.0662,light rain,93,47.01,100,5.75
Virginia Beach,US,36.8529,-75.978,overcast clouds,94,63.03,100,6.91
Edd,ER,13.9297,41.6925,clear sky,35,88.59,0,12.26
Upernavik,GL,72.7868,-56.1549,broken clouds,76,29.17,66,31.92
Kiskunmajsa,HU,46.4903,19.74,overcast clouds,76,41.09,100,4.23
Karratha,AU,-20.7377,116.8463,clear sky,36,89.49,0,21.05
Puerto Ayora,EC,-0.7393,-90.3518,broken clouds,94,66.54,67,1.01
Severo-Kurilsk,RU,50.6789,156.125,few clouds,78,27.77,21,8.48
Doboz,HU,46.7333,21.25,broken clouds,92,39.97,73,2.59
Ryotsu,JP,38.0833,138.4333,light rain,76,48.0,99,17.96
Port Lincoln,AU,-34.7333,135.8667,broken clouds,55,58.03,55,18.72
Kodiak,US,57.79,-152.4072,clear sky,47,33.31,0,10.36
Contamana,PE,-7.3333,-75.0167,overcast clouds,97,69.84,100,0.76
Chuy,UY,-33.6971,-53.4616,light rain,94,61.92,0,4.12
Seoul,KR,37.5683,126.9778,clear sky,52,45.79,0,8.05
Idil,TR,37.3411,41.8895,few clouds,62,53.53,20,4.61
Vostok,RU,46.4856,135.8833,overcast clouds,98,4.48,99,4.21
Sokoto,NG,13.0609,5.239,clear sky,15,81.27,9,18.88
Portland,US,45.5234,-122.6762,mist,91,41.72,100,0.0
Vila Velha,BR,-20.3297,-40.2925,moderate rain,91,75.15,75,9.22
Cangucu,BR,-31.395,-52.6756,broken clouds,94,61.0,75,3.2
Novo Aripuana,BR,-5.1206,-60.3797,overcast clouds,97,72.41,92,1.48
Flin Flon,CA,54.7682,-101.865,broken clouds,94,-20.7,55,5.75
Codrington,AU,-38.2667,141.9667,overcast clouds,55,53.69,94,22.55
Boralday,KZ,43.3578,76.8594,mist,86,22.86,100,4.47
Isangel,VU,-19.55,169.2667,scattered clouds,94,78.91,40,3.44
Mgandu,TZ,-5.95,34.1333,scattered clouds,34,82.71,36,8.5
Lowicz,PL,52.1071,19.9453,overcast clouds,91,36.18,100,13.2
Homer,US,59.6425,-151.5483,overcast clouds,73,35.8,100,15.99
Esperance,AU,-33.8667,121.9,clear sky,59,63.12,0,24.23
Vao,NC,-22.6667,167.4833,overcast clouds,85,76.69,100,7.2
Berlevag,NO,70.8578,29.0864,broken clouds,87,35.55,75,9.22
Fethiye,TR,36.6217,29.1164,overcast clouds,65,58.87,100,1.97
Vikhorevka,RU,56.1201,101.1636,overcast clouds,86,8.19,100,14.61
Dunda,TZ,-8.1167,34.25,few clouds,28,90.01,17,3.98
Bambous Virieux,MU,-20.3428,57.7575,light rain,78,83.21,75,11.5
Lompoc,US,34.6391,-120.4579,clear sky,98,44.6,0,6.91
Luocheng,CN,29.3848,104.0286,overcast clouds,60,53.02,100,1.32
Lewiston,US,44.1003,-70.2148,light rain,97,46.38,100,5.75
Katsuura,JP,35.1333,140.3,overcast clouds,57,53.67,97,8.23
Wattegama,LK,6.7989,81.4808,light rain,81,74.46,100,2.53
Yulara,AU,-25.2406,130.9889,broken clouds,20,94.08,75,11.32
Dutse,NG,11.7594,9.3392,overcast clouds,20,78.76,100,14.99
Svetlyy,RU,54.675,20.1347,light snow,91,33.96,100,8.88
Leningradskiy,RU,69.3833,178.4167,broken clouds,94,-4.2,57,6.38
Santa Fe,AR,-31.6333,-60.7,light rain,76,76.01,0,1.01
Beyneu,KZ,45.3167,55.2,clear sky,50,23.36,7,8.57
Avarua,CK,-21.2078,-159.775,light rain,88,75.25,75,13.8
Kuching,MY,1.55,110.3333,thunderstorm with rain,90,86.02,40,8.01
Aykhal,RU,66.0,111.5,overcast clouds,99,-10.53,100,14.0
Maridi,SS,4.9158,29.4742,scattered clouds,34,86.2,34,7.99
Plouzane,FR,48.3833,-4.6167,overcast clouds,84,42.85,100,5.75
Abu Samrah,SY,35.3029,37.1841,scattered clouds,54,59.14,26,2.95
Mount Isa,AU,-20.7333,139.5,overcast clouds,15,100.17,100,5.75
Carnarvon,AU,-24.8667,113.6333,clear sky,67,72.86,0,16.55
Bryan,US,30.6744,-96.37,broken clouds,89,73.08,75,5.75
Farsund,NO,58.0948,6.8047,broken clouds,100,30.94,59,6.8
Nanortalik,GL,60.1432,-45.2371,scattered clouds,91,29.71,40,7.07
Grand Gaube,MU,-20.0064,57.6608,light rain,68,83.37,1,20.15
Raudeberg,NO,61.9875,5.1352,snow,64,30.87,100,17.9
Balsta,SE,59.5671,17.5278,few clouds,83,22.06,23,5.84
Kerema,PG,-7.9631,145.7785,heavy intensity rain,84,79.88,100,4.92
Taoudenni,ML,22.6783,-3.9836,clear sky,24,83.5,6,3.2
Bandarbeyla,SO,9.4942,50.8122,scattered clouds,60,82.31,41,17.2
Srikakulam,IN,18.3,83.9,overcast clouds,46,79.43,100,13.71
Montlucon,FR,46.3333,2.6,overcast clouds,98,35.71,89,6.17
Longyearbyen,SJ,78.2186,15.6401,few clouds,61,10.24,20,14.97
Domoni,KM,-12.2569,44.5319,light rain,71,83.34,26,3.58
Husavik,IS,66.0449,-17.3389,light snow,91,28.08,100,4.76
Gamba,GA,-2.65,10.0,overcast clouds,82,76.44,100,1.9
Port Hueneme,US,34.1478,-119.1951,clear sky,92,52.68,0,6.91
Tiksi,RU,71.6872,128.8694,overcast clouds,100,-24.34,100,5.35
Gambo,CF,4.6482,22.2633,overcast clouds,27,89.67,100,4.18
Broken Hill,AU,-31.95,141.4333,clear sky,22,75.52,1,25.55
Voi,KE,-3.3945,38.563,broken clouds,53,84.52,56,6.76
Pochutla,MX,15.7432,-96.4661,clear sky,64,71.82,5,3.09
Dingle,PH,10.9995,122.6711,overcast clouds,84,78.94,95,6.73
Cienfuegos,CU,22.1461,-80.4356,clear sky,100,66.34,1,3.44
Makokou,GA,0.5738,12.8642,light rain,79,78.19,95,2.73
Anadyr,RU,64.75,177.4833,broken clouds,92,7.3,75,8.95
Pangnirtung,CA,66.1451,-65.7125,light snow,96,13.98,100,2.17
Koslan,RU,63.4564,48.8989,light snow,94,18.97,100,8.3
Mareeba,AU,-17.0,145.4333,clear sky,75,78.44,9,3.4
Sioux Lookout,CA,50.1001,-91.917,clear sky,76,-14.73,0,4.61
San Quintin,MX,30.4833,-115.95,clear sky,77,55.15,0,6.69
Ostrovnoy,RU,68.0531,39.5131,overcast clouds,91,26.64,90,19.26
Marawi,PH,7.9986,124.2928,broken clouds,92,71.31,79,3.8
Mayo,US,38.8876,-76.5119,mist,96,53.19,100,4.61
Vestmanna,FO,62.1564,-7.1664,shower snow,80,31.12,100,17.27
Morant Bay,JM,17.8815,-76.4093,few clouds,76,78.42,17,14.99
Opochka,RU,56.7105,28.6617,overcast clouds,89,21.18,100,13.02
Shache,CN,38.4167,77.2406,clear sky,25,34.88,1,3.44
Beloha,MG,-25.1667,45.05,clear sky,33,97.16,0,5.75
Minot,US,48.2325,-101.2963,broken clouds,77,-8.21,75,5.75
Dongtai,CN,32.8523,120.3095,clear sky,58,47.32,3,8.84
Noumea,NC,-22.2763,166.4572,overcast clouds,99,81.0,100,3.47
Whitehorse,CA,60.7161,-135.0538,mist,85,14.81,100,0.0
Bethel,US,41.3712,-73.414,overcast clouds,93,56.89,100,1.01
Durango,MX,24.8333,-104.8333,scattered clouds,67,53.31,32,5.88
Woodstock,CA,43.1334,-80.7497,overcast clouds,96,40.42,100,4.99
Maltahohe,NA,-24.8333,16.9833,clear sky,11,81.25,0,15.21
Banda Aceh,ID,5.5577,95.3222,overcast clouds,69,82.58,98,7.67
Iqaluit,CA,63.7506,-68.5145,clear sky,96,-5.26,7,4.45
Havelock,US,34.8791,-76.9013,fog,88,64.92,100,0.0
Souillac,MU,-20.5167,57.5167,light rain,78,80.98,75,11.5
Dakar,SN,14.6937,-17.4441,clear sky,78,78.93,0,11.5
Mahajanga,MG,-15.7167,46.3167,few clouds,32,96.82,20,9.22
Lincolnton,US,35.4737,-81.2545,fog,94,50.02,100,0.0
Ballina,AU,-28.8667,153.5667,scattered clouds,93,72.79,30,13.0
Ahipara,NZ,-35.1667,173.1667,light rain,88,61.32,100,16.42
Yumen,CN,40.2833,97.2,broken clouds,78,20.95,74,5.26
Suntar,RU,62.1444,117.6319,light snow,93,16.11,100,11.45
Pafos,CY,34.7667,32.4167,scattered clouds,56,69.58,40,4.61
San Juan,AR,-31.5375,-68.5364,few clouds,40,76.93,20,3.31
Kentau,KZ,43.5206,68.5094,clear sky,46,24.55,0,3.09
Siddipet,IN,18.1,78.85,broken clouds,34,79.66,72,11.14
Tuensang,IN,26.2833,94.8333,clear sky,47,71.26,2,3.38
Tabou,CI,4.423,-7.3528,broken clouds,81,80.76,66,5.46
Grand-Santi,GF,4.25,-54.3833,scattered clouds,99,69.94,30,1.63
Kununurra,AU,-15.7667,128.7333,broken clouds,43,94.98,80,8.05
Kiunga,PG,-6.1219,141.2906,light rain,97,75.13,100,3.42
Half Moon Bay,US,37.4636,-122.4286,clear sky,91,49.91,0,0.0
New Norfolk,AU,-42.7826,147.0587,overcast clouds,53,54.9,97,1.01
Port-Gentil,GA,-0.7193,8.7815,few clouds,70,84.16,20,1.14
Zhob,PK,31.3411,69.4481,clear sky,28,60.21,4,6.26
Khamanon,IN,30.8186,76.3508,clear sky,19,72.72,0,13.87
Manacor,ES,39.5696,3.2096,broken clouds,81,58.51,54,2.93
Kenora,CA,49.8167,-94.4337,scattered clouds,76,-13.23,40,4.61
Aanekoski,FI,62.6946,25.818,overcast clouds,96,26.67,100,2.84
Cabo San Lucas,MX,22.8909,-109.9124,scattered clouds,76,76.51,30,3.83
Nome,US,64.5011,-165.4064,broken clouds,85,14.07,75,0.0
Nikita,UA,44.5333,34.2333,overcast clouds,85,36.55,100,2.64
Epinal,FR,48.1833,6.45,few clouds,83,34.56,19,0.89
West Richland,US,46.3043,-119.3614,mist,94,26.56,100,0.0
Shatrovo,RU,56.5167,64.6333,few clouds,91,6.04,14,7.72
Antofagasta,CL,-23.65,-70.4,overcast clouds,90,63.68,100,1.1
Ancud,CL,-41.8697,-73.8203,light rain,84,54.95,100,10.42
Ugoofaaru,MV,5.6667,73.0,overcast clouds,76,80.47,100,5.06
Namatanai,PG,-3.6667,152.4333,light rain,84,78.94,93,10.18
Timbiqui,CO,2.7717,-77.6654,scattered clouds,95,71.71,50,3.56
Bani,DO,18.2833,-70.3333,clear sky,70,71.85,0,6.73
Olafsvik,IS,64.8945,-23.7142,few clouds,73,35.04,22,9.13
Vilhena,BR,-12.7406,-60.1458,broken clouds,98,66.51,83,3.02
Geraldton,AU,-28.7667,114.6,clear sky,57,79.21,0,10.36
Kurchum,KZ,48.5722,83.6542,overcast clouds,96,-0.4,99,1.54
Gayny,RU,60.3071,54.3241,scattered clouds,76,12.69,35,8.05
Olutanga,PH,7.3106,122.8464,broken clouds,71,82.78,83,5.48
Kincardine,GB,56.0667,-3.7167,overcast clouds,85,37.85,90,5.17
Teguise,ES,29.0605,-13.564,few clouds,78,66.42,20,12.66
Somerset,US,40.5668,-74.5496,mist,98,58.89,100,1.01
Talnakh,RU,69.4865,88.3972,snow,96,10.06,100,6.78
Sao Benedito Do Rio Preto,BR,-3.3336,-43.5283,clear sky,95,72.34,7,2.21
Okhotsk,RU,59.3833,143.3,scattered clouds,96,-15.54,42,5.64
Okha,RU,53.5739,142.9478,broken clouds,86,0.19,81,14.2
Raymond Terrace,AU,-32.75,151.75,light intensity shower rain,41,75.25,100,28.77
Karymskoye,RU,51.6167,114.35,broken clouds,73,14.83,69,12.95
Krasnyy Profintern,RU,57.7446,40.435,overcast clouds,77,19.42,99,12.26
Tombouctou,ML,20.0,-3.0,clear sky,14,81.75,0,9.08
Wewak,PG,-3.5534,143.6268,overcast clouds,83,79.66,99,2.8
Barranca,PE,-10.75,-77.7667,broken clouds,90,64.17,65,4.59
Saldanha,ZA,-33.0117,17.9442,clear sky,62,75.25,0,8.32
Harer,ET,9.3094,42.1258,clear sky,24,74.34,2,3.33
Srednekolymsk,RU,67.45,153.6833,overcast clouds,96,-20.79,100,16.37
Tuktoyaktuk,CA,69.4541,-133.0374,few clouds,83,-16.71,11,9.73
Kenai,US,60.5544,-151.2583,mist,94,26.65,100,0.0
Kizukuri,JP,40.8061,140.3861,broken clouds,67,40.51,81,11.54
Emerald,AU,-23.5333,148.1667,clear sky,21,94.41,0,5.14
Sao Filipe,CV,14.8961,-24.4956,broken clouds,76,73.44,66,4.97
Airai,TL,-8.9266,125.4092,overcast clouds,69,67.44,100,3.02
Clyde River,CA,70.4692,-68.5914,clear sky,62,12.43,0,17.27
Umarga,IN,17.8333,76.6167,scattered clouds,28,84.31,31,13.04
Ulagan,RU,50.6321,87.9563,overcast clouds,83,4.48,100,0.31
Halifax,CA,44.6453,-63.5724,overcast clouds,97,46.22,100,14.97
Qaqortoq,GL,60.7167,-46.0333,few clouds,81,21.9,12,6.67
San Patricio,US,28.017,-97.5169,overcast clouds,97,70.84,92,7.49
Suamico,US,44.6319,-88.0393,overcast clouds,86,31.87,100,0.0
Sisimiut,GL,66.9395,-53.6735,overcast clouds,78,27.25,100,16.06
Valer,NO,60.6785,11.8331,broken clouds,97,14.85,71,3.71
Coolum Beach,AU,-26.5333,153.1,clear sky,88,75.34,0,7.29
Pudozh,RU,61.8099,36.5345,overcast clouds,92,23.88,100,9.06
Saint-Michel-Des-Saints,CA,46.6834,-73.9159,snow,100,34.93,100,3.47
Kahului,US,20.8947,-156.47,clear sky,79,77.85,0,14.97
Poum,NC,-20.2333,164.0167,overcast clouds,80,80.35,96,7.74
Muros,ES,42.7762,-9.0603,overcast clouds,80,54.37,100,5.73
Kawalu,ID,-7.3817,108.2082,overcast clouds,82,79.7,100,3.8
Oksfjord,NO,70.2396,22.3479,broken clouds,88,30.38,81,3.13
Egvekinot,RU,66.3167,-179.1667,light snow,97,6.21,100,4.59
Cordoba,AR,-31.4135,-64.1811,clear sky,49,80.76,0,8.05
Grindavik,IS,63.8424,-22.4338,few clouds,86,28.87,20,8.05
Abalak,RU,58.1286,68.5944,few clouds,93,5.72,23,6.87
Toribio,CO,2.9548,-76.2684,overcast clouds,98,57.52,98,1.81
Saint Anthony,US,45.0205,-93.218,scattered clouds,73,21.24,40,13.8
Mitu,CO,1.1983,-70.1733,overcast clouds,97,70.59,100,1.68
Intipuca,SV,13.1969,-88.0544,clear sky,80,68.81,9,4.05
Port Hawkesbury,CA,45.6169,-61.3485,mist,99,42.39,100,10.36
Severo-Yeniseyskiy,RU,60.3725,93.0408,overcast clouds,92,7.14,100,12.86
Dekar,BW,-21.5333,21.9333,clear sky,33,86.27,3,18.07
Grootfontein,NA,-19.5667,18.1167,clear sky,9,86.38,2,7.72
Chicama,PE,-7.8447,-79.1469,overcast clouds,89,61.34,95,3.31
Catamarca,AR,-28.4696,-65.7852,overcast clouds,38,86.07,99,12.57
Seymchan,RU,62.8833,152.4333,broken clouds,99,-52.71,74,0.07
Soyo,AO,-6.1349,12.3689,broken clouds,73,82.08,73,1.45
Nhulunbuy,AU,-12.2333,136.7667,overcast clouds,65,84.81,100,6.91
Mount Darwin,ZW,-16.7725,31.5838,light rain,46,85.3,57,4.81
Sorong,ID,-0.8833,131.25,overcast clouds,70,83.19,100,8.68
Razole,IN,16.4833,81.8333,broken clouds,38,86.77,77,6.71
Iskateley,RU,67.6803,53.1512,overcast clouds,95,11.32,96,11.16
Pombas,CV,17.1503,-25.0201,scattered clouds,74,67.78,32,4.56
Aswan,EG,24.0934,32.907,clear sky,34,70.95,0,9.33
San Cristobal,VE,7.7669,-72.225,broken clouds,91,60.55,60,2.89
Cortes,ES,41.9395,-1.4396,overcast clouds,72,44.65,93,4.27
Padang,ID,-0.9492,100.3543,overcast clouds,90,82.45,100,8.72
Lazaro Cardenas,MX,17.9583,-102.2,clear sky,86,74.26,1,3.98
Kavaratti,IN,10.5669,72.642,overcast clouds,69,81.99,99,6.06
Celestun,MX,20.8667,-90.4,clear sky,86,69.89,0,10.87
Garowe,SO,8.4054,48.4845,broken clouds,28,87.91,59,10.92
Isla Mujeres,MX,21.2311,-86.731,clear sky,72,77.16,2,11.27
Holme,DK,56.1138,10.1725,scattered clouds,92,32.18,49,8.86
Alyangula,AU,-13.8483,136.4192,broken clouds,56,86.54,68,8.88
Srivardhan,IN,18.0333,73.0167,overcast clouds,51,84.16,88,11.01
Ouadda,CF,8.0777,22.4007,clear sky,16,90.99,1,6.22
Coquimbo,CL,-29.9533,-71.3436,overcast clouds,94,58.73,100,2.3
Phan Thiet,VN,10.9333,108.1,overcast clouds,86,79.57,99,13.65
Jurbise,BE,50.5332,3.9108,overcast clouds,94,41.38,100,5.75
Victoria,HK,22.2855,114.1577,clear sky,69,70.2,0,13.0
Hovd,MN,48.0056,91.6419,scattered clouds,81,2.97,40,0.67
Kholmogory,RU,64.2229,41.656,snow,92,21.4,100,7.27
Cockburn Town,TC,21.4612,-71.1419,broken clouds,61,78.01,69,16.98
Strezhevoy,RU,60.7333,77.5889,overcast clouds,95,2.84,100,8.61
Selty,RU,57.3132,52.1345,broken clouds,89,10.78,53,6.93
Luderitz,NA,-26.6481,15.1594,clear sky,57,69.04,0,19.55
Bilibino,RU,68.0546,166.4372,overcast clouds,100,-15.07,100,2.89
Dongsheng,CN,39.8161,109.9776,scattered clouds,35,25.47,28,4.12
Puerto Escondido,MX,15.85,-97.0667,clear sky,74,75.02,0,3.71
Paraiso,CR,9.8383,-83.8656,scattered clouds,98,63.46,34,3.27
Tocopilla,CL,-22.092,-70.1979,overcast clouds,77,65.53,99,2.42
Athens,GR,37.9795,23.7162,broken clouds,78,63.1,75,5.01
Vestmannaeyjar,IS,63.4427,-20.2734,clear sky,80,31.19,0,11.5
Cayenne,GF,4.9333,-52.3333,broken clouds,100,73.44,75,0.0
Bentiu,SS,9.2333,29.8333,scattered clouds,17,93.67,28,6.26
Lorengau,PG,-2.0226,147.2712,overcast clouds,83,79.74,100,10.94
Sitka,US,57.0531,-135.33,moderate rain,87,42.69,100,12.66
Vernesti,RO,45.2167,26.7333,overcast clouds,67,46.96,100,5.17
San Luis,AR,-33.295,-66.3356,broken clouds,44,74.66,73,14.38
Torremolinos,ES,36.6204,-4.4998,broken clouds,81,62.91,75,9.22
Chancay,PE,-11.5714,-77.2672,overcast clouds,89,64.78,98,3.83
Palma Del Rio,ES,37.7002,-5.2812,broken clouds,75,50.32,69,6.08
Kirakira,SB,-10.4544,161.9205,broken clouds,84,80.06,80,4.5
Caravelas,BR,-17.7125,-39.2481,broken clouds,82,76.39,81,4.61
Vulcan,RO,45.3833,23.2667,overcast clouds,70,41.13,100,2.48
Tuatapere,NZ,-46.1333,167.6833,overcast clouds,80,54.43,100,1.12
Iquique,CL,-20.2208,-70.1431,overcast clouds,66,64.44,100,2.19
Majene,ID,-3.5403,118.9707,scattered clouds,79,81.36,46,4.43
Finnsnes,NO,69.2296,17.9811,overcast clouds,73,9.21,100,4.7
Ribeira Grande,PT,38.5167,-28.7,light rain,72,57.78,40,26.46
Kukes,AL,42.0769,20.4219,overcast clouds,70,55.11,100,4.85
Yurty,RU,56.0498,97.6348,overcast clouds,86,9.79,100,14.16
Touros,BR,-5.1989,-35.4608,scattered clouds,73,80.51,33,14.12
Ammon,US,43.4696,-111.9666,fog,91,23.5,100,0.0
Moron,AR,-34.6534,-58.6198,clear sky,61,80.49,2,3.71
Lata,PT,40.1629,-8.3327,overcast clouds,83,53.69,100,5.99
Dicabisagan,PH,17.0818,122.4157,broken clouds,88,77.99,54,6.35
Sao Joao Da Barra,BR,-21.6403,-41.0511,moderate rain,93,72.34,100,8.68
Nabire,ID,-3.3667,135.4833,overcast clouds,78,80.13,100,2.13
Cutro,IT,39.0353,16.9819,clear sky,94,60.66,0,2.3
Turayf,SA,31.6725,38.6637,clear sky,72,61.05,0,6.91
Baruun-Urt,MN,46.6806,113.2792,scattered clouds,87,6.12,31,7.25
Guerrero Negro,MX,27.9769,-114.0611,clear sky,74,58.73,4,10.42
Kromy,RU,52.6876,35.7667,clear sky,71,20.84,4,16.42
Fortuna,US,40.5982,-124.1573,overcast clouds,100,37.35,100,9.22
Khunti,IN,23.0833,85.2833,broken clouds,26,73.51,83,7.47
Beringovskiy,RU,63.05,179.3167,clear sky,67,8.53,10,10.42
Nioro,GM,13.35,-15.75,clear sky,33,85.39,6,9.86
Te Anau,NZ,-45.4167,167.7167,overcast clouds,85,52.99,100,2.53
Sechura,PE,-5.5569,-80.8222,broken clouds,89,63.9,65,6.76
Van Buren,US,35.4368,-94.3483,overcast clouds,93,52.32,100,6.91
Manoel Urbano,BR,-8.8389,-69.2597,overcast clouds,85,73.81,100,2.06
Sola,VU,-13.8833,167.55,broken clouds,94,79.47,75,0.0
Saint-Joseph,RE,-21.3667,55.6167,clear sky,69,86.11,4,16.53
Bandar-E Lengeh,IR,26.5579,54.8807,haze,73,78.91,0,6.91
Gat,IL,31.61,34.7642,scattered clouds,100,68.77,44,6.55
Mayor Pablo Lagerenza,PY,-19.9309,-60.7718,overcast clouds,84,75.78,100,4.32
Chumphon,TH,10.3333,98.8333,overcast clouds,78,77.72,89,6.67
Panguna,PG,-6.3164,155.4848,overcast clouds,96,69.13,97,1.41
Klaksvik,FO,62.2266,-6.589,light snow,74,32.92,100,29.42
La Ronge,CA,55.1001,-105.2842,clear sky,68,-25.35,0,6.91
West Helena,US,34.5507,-90.6418,moderate rain,96,67.75,100,10.58
Korla,CN,41.7597,86.1469,scattered clouds,35,30.2,39,4.36
Ipixuna,BR,-1.7625,-48.8043,scattered clouds,93,74.84,32,3.65
Inhambane,MZ,-23.865,35.3833,scattered clouds,55,89.58,40,11.5
Mazamari,PE,-11.3258,-74.5308,moderate rain,96,65.48,97,1.68
La Gomera,GT,14.0833,-91.05,clear sky,80,70.18,8,3.44
Olinda,BR,-8.0089,-34.8553,scattered clouds,74,80.33,40,6.91
Joshimath,IN,30.5667,79.5667,clear sky,17,61.29,0,5.23
Salalah,OM,17.0151,54.0924,scattered clouds,57,82.49,40,6.91
Luwuk,ID,-0.9516,122.7875,broken clouds,81,79.3,79,2.28
Tibiao,PH,11.2915,122.0354,overcast clouds,74,80.83,86,4.12
Kalmunai,LK,7.4167,81.8167,light rain,83,76.87,100,15.7
Port Hedland,AU,-20.3167,118.5667,clear sky,38,91.45,4,24.16
Uaua,BR,-9.8414,-39.4817,scattered clouds,82,72.48,36,10.98
Peterhead,GB,57.5058,-1.7981,overcast clouds,69,36.0,100,22.59
Bosaso,SO,11.2842,49.1816,few clouds,65,84.18,20,11.5
Comodoro Rivadavia,AR,-45.8667,-67.5,clear sky,76,53.46,0,1.14
Agadez,NE,19.75,10.25,scattered clouds,12,77.56,31,9.19
Paris,FR,48.8534,2.3488,overcast clouds,97,37.11,100,5.75
Sinazongwe,ZM,-17.2614,27.4618,overcast clouds,59,81.09,99,4.56
Dwarka,IN,22.2394,68.9678,clear sky,35,80.62,0,8.99
Gizo,SB,-8.103,156.8419,broken clouds,73,82.76,80,4.68
Turan,VN,16.0678,108.2208,broken clouds,88,75.18,75,10.36
Quatre Cocos,MU,-20.2078,57.7625,light rain,73,83.08,11,16.04
Acala,MX,16.5667,-92.8,clear sky,80,64.72,6,2.71
Stepnyak,KZ,52.8339,70.7803,broken clouds,91,-5.28,64,0.94
Acapulco,MX,16.8634,-99.8901,clear sky,94,75.02,0,0.0
Den Helder,NL,52.9599,4.7593,broken clouds,79,43.99,75,8.99
Ayan,RU,56.45,138.1667,broken clouds,71,-3.6,54,12.59
Ngunguru,NZ,-35.6167,174.5,light rain,93,60.12,100,28.45
Kudahuvadhoo,MV,2.6708,72.8944,light rain,77,80.85,90,11.32
Tura,IN,25.5198,90.2201,few clouds,66,72.25,13,3.58
Manjacaze,MZ,-24.7117,33.8828,broken clouds,32,97.48,83,0.65
Jintur,IN,19.6167,76.7,scattered clouds,33,83.77,45,11.05
Chokurdakh,RU,70.6333,147.9167,light snow,99,-5.1,100,5.73
Ilhabela,BR,-23.7781,-45.3581,light rain,90,75.69,42,6.29
Saucillo,MX,28.0167,-105.2833,scattered clouds,82,57.63,39,3.6
Koumac,NC,-20.5667,164.2833,overcast clouds,85,78.94,98,7.23
Xingyi,CN,24.1877,102.817,clear sky,62,59.54,9,7.65
Bathsheba,BB,13.2167,-59.5167,few clouds,97,73.06,20,6.91
Soe,ID,-9.8607,124.284,overcast clouds,75,69.76,98,2.89
Camocim,BR,-2.9022,-40.8411,broken clouds,68,79.38,55,12.3
Hofn,IS,64.2539,-15.2082,clear sky,64,30.22,0,13.8
Aklavik,CA,68.2191,-135.0107,overcast clouds,89,-12.69,100,11.54
Lubben,DE,51.95,13.9,overcast clouds,78,37.26,100,13.73
Dubbo,AU,-32.25,148.6167,light rain,77,62.73,100,6.91
Tailai,CN,46.3833,123.4,few clouds,85,9.95,16,5.68
Gazanjyk,TM,39.2446,55.5154,few clouds,38,39.38,24,14.47
Maniitsoq,GL,65.4167,-52.9,light snow,78,31.21,100,22.28
Ferrol,ES,43.4832,-8.2369,overcast clouds,95,56.26,99,4.12
Shingu,JP,33.7333,135.9833,overcast clouds,68,46.92,98,6.49
Namibe,AO,-15.1961,12.1522,few clouds,67,74.7,18,9.17
Alfonsine,IT,44.5061,12.0564,overcast clouds,96,44.56,100,7.0
Svetlogorsk,BY,52.6333,29.7333,light snow,95,24.93,100,15.93
Chara,RU,56.9064,118.2631,overcast clouds,75,-1.93,91,4.68
Biggar,GB,55.6167,-3.5167,few clouds,81,33.55,24,3.02
Najran,SA,17.4924,44.1277,clear sky,16,83.05,0,3.18
Yenagoa,NG,4.9247,6.2642,overcast clouds,61,87.93,100,0.96
Le Port,RE,-20.9373,55.2919,few clouds,66,87.76,12,4.88
Deputatskiy,RU,69.3,139.9,overcast clouds,96,-15.29,100,5.73
Kjollefjord,NO,70.9457,27.3465,broken clouds,93,37.45,75,5.75
Palmer,US,42.1584,-72.3287,light intensity drizzle,84,56.25,100,9.22
Batsfjord,NO,70.6345,29.7185,broken clouds,93,35.53,75,10.36
Yuci,CN,37.6803,112.7319,clear sky,25,37.15,0,2.24
Plettenberg Bay,ZA,-34.0527,23.3716,clear sky,64,71.89,0,10.29
Bria,CF,6.5423,21.9863,scattered clouds,17,93.36,34,5.41
Carson City,US,39.1638,-119.7674,clear sky,84,29.16,0,1.99
Necochea,AR,-38.5473,-58.7368,clear sky,69,63.28,0,13.94
Miraflores,MX,19.2167,-98.8083,clear sky,49,56.05,0,2.98
Ha Tinh,VN,18.3333,105.9,overcast clouds,92,65.66,100,4.65
Oktyabrskiy,RU,54.4815,53.471,clear sky,90,6.12,10,4.25
Alice Springs,AU,-23.7,133.8833,broken clouds,20,96.35,83,19.57
Shimoda,JP,34.6667,138.95,overcast clouds,66,48.11,100,21.94
Havoysund,NO,70.9963,24.6622,light rain,98,37.63,100,26.28
Tsumeb,NA,-19.2333,17.7167,clear sky,10,91.27,0,10.11
Paamiut,GL,61.994,-49.6678,overcast clouds,79,26.74,100,8.86
Bonfim,BR,3.0833,-59.95,broken clouds,88,73.63,51,2.01
North Versailles,US,40.3798,-79.8095,mist,92,58.78,100,5.75
Basoko,CD,1.2391,23.616,broken clouds,51,88.38,71,2.35
Krasnoselkup,RU,65.7,82.4667,overcast clouds,90,4.05,99,14.25
Augusto Correa,BR,-1.0217,-46.635,broken clouds,78,78.94,78,4.68
Gravdal,NO,68.1214,13.5031,broken clouds,65,34.83,70,12.17
Westport,US,41.1415,-73.3579,mist,96,58.15,100,11.5
Marathon,US,44.9,-89.7668,overcast clouds,84,29.73,100,3.44
Ambon,ID,-3.6954,128.1814,few clouds,70,84.34,20,4.61
Huzhou,CN,30.8703,120.0933,overcast clouds,71,50.14,100,6.55
Tautira,PF,-17.7333,-149.15,light rain,78,79.02,99,18.48
Vardo,NO,70.3705,31.1107,broken clouds,93,33.78,75,9.22
North Bend,US,43.4065,-124.2243,few clouds,99,39.92,20,9.22
Mongu,ZM,-15.2484,23.1274,broken clouds,53,78.96,79,12.19
High Level,CA,58.5169,-117.136,light snow,76,-16.49,75,2.3
Marang,MY,5.2056,103.2059,light rain,80,83.97,89,10.22
Marrakesh,MA,31.6315,-8.0083,scattered clouds,77,57.27,40,3.44
Mishelevka,RU,52.8575,103.1719,overcast clouds,91,8.56,100,2.77
Maceio,BR,-9.6658,-35.7353,few clouds,100,72.84,20,2.3
Lac Du Bonnet,CA,50.2536,-96.0612,scattered clouds,100,-21.91,28,2.48
Bodden Town,KY,19.2833,-81.25,few clouds,75,78.93,24,5.99
San Rafael,AR,-34.6177,-68.3301,clear sky,44,74.08,0,3.65
Casale Monferrato,IT,45.1334,8.4571,clear sky,65,44.29,6,1.1
Myitkyina,MM,25.3833,97.4,scattered clouds,54,74.62,37,0.78
Kamenka,RU,51.3223,42.7678,clear sky,50,19.35,4,14.34
Brasilia,BR,-15.7797,-47.9297,fog,94,65.62,90,2.3
Norden,DE,53.6,7.2,overcast clouds,77,41.0,100,1.01
Puerto Narino,CO,-3.7703,-70.3831,overcast clouds,100,71.47,100,2.55
Tres Arroyos,AR,-38.3739,-60.2798,clear sky,56,63.61,0,12.75
Poso,ID,-1.3959,120.7524,overcast clouds,87,78.64,93,1.34
Odweyne,SO,9.4092,45.064,scattered clouds,24,81.9,44,1.83
Igrim,RU,63.1906,64.4162,overcast clouds,76,10.69,93,9.55
Bloemfontein,ZA,-29.1211,26.214,few clouds,34,80.08,20,11.5
Ramganj,BD,23.1,90.85,broken clouds,40,80.31,62,5.19
Ouesso,CG,1.6136,16.0517,overcast clouds,54,87.6,100,2.77
Pryazha,RU,61.6926,33.6216,overcast clouds,89,22.23,100,8.12
Ales,FR,44.1333,4.0833,clear sky,63,42.69,7,5.48
Richmond,US,37.5538,-77.4603,mist,96,52.41,100,4.61
Nouadhibou,MR,20.931,-17.0347,clear sky,88,66.18,10,8.05
Umm Lajj,SA,25.0213,37.2685,clear sky,51,77.56,0,11.45
Muisne,EC,0.6,-80.0333,light rain,88,73.69,100,9.44
Sobolevo,RU,54.4299,31.8996,overcast clouds,89,19.31,87,16.33
Wadi Musa,JO,30.3222,35.4793,clear sky,53,56.68,5,3.36
Yerbogachen,RU,61.2767,108.0108,overcast clouds,89,12.96,100,15.01
Monte Patria,CL,-30.6919,-70.9467,broken clouds,49,69.28,83,1.9
Kirando,TZ,-7.4167,30.6,light rain,68,78.13,94,1.54
Kot Diji,PK,27.3427,68.7083,clear sky,14,80.62,0,3.22
Fare,PF,-16.7,-151.0167,scattered clouds,76,80.15,29,16.26
Daru,PG,-9.0763,143.2092,overcast clouds,76,79.5,96,8.32
Mizdah,LY,31.4451,12.9801,overcast clouds,17,73.47,88,20.09
Citrus Park,US,28.0784,-82.5698,clear sky,92,67.89,0,4.61
Quartucciu,IT,39.2519,9.1794,clear sky,76,64.65,0,6.91
Shakawe,BW,-18.3667,21.85,broken clouds,27,91.83,53,8.68
Chamba,IN,32.5667,76.1333,overcast clouds,26,66.0,90,4.92
Buraydah,SA,26.326,43.975,overcast clouds,65,59.45,98,10.16
Shemysheyka,RU,52.892,45.3928,few clouds,79,14.97,11,9.26
Sorland,NO,67.667,12.6934,broken clouds,63,37.26,73,20.85
Igarka,RU,67.4667,86.5833,overcast clouds,93,9.36,100,13.2
Bintulu,MY,3.1667,113.0333,few clouds,79,86.41,20,5.99
Kibiti,TZ,-7.7218,38.9375,broken clouds,50,87.58,71,3.89
Adrar,MR,20.5022,-10.0711,clear sky,33,80.55,1,5.06
Conceicao Do Araguaia,BR,-8.2578,-49.2647,overcast clouds,91,73.74,99,1.72
Turukhansk,RU,65.8167,87.9833,light snow,96,4.21,100,11.34
Prado,BR,-17.3411,-39.2208,broken clouds,89,74.62,54,3.85
Quelimane,MZ,-17.8786,36.8883,broken clouds,62,91.35,75,11.5
Rocky Mountain House,CA,52.3668,-114.9188,overcast clouds,85,1.51,91,3.44
Lasa,IT,46.6166,10.7002,broken clouds,81,36.48,75,3.69
Concarneau,FR,47.875,-3.9225,clear sky,77,34.59,5,8.84
Ziarat,PK,30.3823,67.7282,clear sky,36,50.02,3,7.58
Eureka,US,40.8021,-124.1637,clear sky,99,40.75,0,4.59
Mildura,AU,-34.2,142.15,clear sky,41,67.06,0,23.49
Oparino,RU,59.8518,48.2783,overcast clouds,70,19.72,100,10.78
Mattru,SL,7.6244,-11.8332,few clouds,70,83.37,20,3.18
Northam,GB,51.0333,-4.2167,overcast clouds,69,38.66,99,3.89
Miri,MY,4.4148,114.0089,scattered clouds,74,86.14,40,6.91
Mao,ES,39.8885,4.2658,few clouds,88,57.76,20,1.14
San Carlos,VE,9.6612,-68.5827,scattered clouds,82,63.68,30,4.0
Araouane,ML,18.9048,-3.5265,clear sky,14,84.96,1,7.65
Kavieng,PG,-2.5744,150.7967,overcast clouds,76,81.95,96,11.48
Korhogo,CI,9.45,-5.6333,few clouds,22,87.49,19,6.06
Kharp,RU,66.8014,65.8081,overcast clouds,82,12.88,100,9.84
Jiamusi,CN,46.8333,130.35,broken clouds,87,10.58,51,5.19
Thung Song,TH,8.1645,99.6804,overcast clouds,79,80.74,90,7.38
Balakhninskiy,RU,58.0106,114.2769,light snow,93,11.17,100,17.83
Atar,MR,20.5169,-13.0499,few clouds,28,84.06,21,1.5
Peabiru,BR,-23.9128,-52.3431,clear sky,92,70.81,0,1.12
Charters Towers,AU,-20.1,146.2667,scattered clouds,44,84.42,27,15.48
Guadalupe Y Calvo,MX,26.1,-106.9667,overcast clouds,86,44.64,100,4.61
Boyle,US,37.6334,-84.8666,overcast clouds,100,65.7,100,0.0
Velingara,SN,13.15,-14.1167,clear sky,31,89.1,0,2.84
Bijawar,IN,24.6333,79.5,clear sky,23,77.25,0,7.54
Gaya,IN,24.7833,85.0,haze,35,75.11,1,5.75
Auki,SB,-8.7676,160.7034,overcast clouds,89,77.49,93,3.89
Sai Buri,TH,6.7013,101.6168,moderate rain,86,78.51,100,10.96
Tahta,EG,26.7693,31.5021,clear sky,37,69.98,0,11.59
Sucre,BO,-19.0333,-65.2627,overcast clouds,60,55.69,100,3.04
Oga,IT,46.4631,10.347,broken clouds,82,33.03,72,4.76
Kyshtovka,RU,56.555,76.6271,broken clouds,99,-1.68,82,4.85
Buchanan,LR,5.8808,-10.0467,broken clouds,75,82.18,73,3.65
Nanakuli,US,21.3906,-158.1547,light rain,71,76.86,20,5.75
Eyl,SO,7.9803,49.8164,overcast clouds,51,85.48,87,19.93
Alta Floresta,BR,-9.8756,-56.0861,broken clouds,98,69.98,80,2.48
Forestville,US,38.8451,-76.875,mist,97,52.3,100,6.91
Kabare,CD,-2.4683,28.8242,light rain,60,74.44,46,2.17
Samarai,PG,-10.6167,150.6667,overcast clouds,79,82.02,100,10.2
Finschhafen,PG,-6.6024,147.8681,overcast clouds,83,80.33,100,2.86
Black Diamond,US,47.3087,-122.0032,overcast clouds,86,41.76,100,1.01
Stornoway,GB,58.2093,-6.3865,broken clouds,91,37.36,75,13.8
Fort Nelson,CA,58.8053,-122.7002,light snow,77,-11.61,100,2.3
Novoagansk,RU,61.9449,76.6625,overcast clouds,93,5.38,99,12.44
Chumikan,RU,54.7183,135.315,broken clouds,80,-0.87,64,15.9
Marsh Harbour,BS,26.5412,-77.0636,scattered clouds,66,73.96,35,15.08
Salamanca,ES,40.8333,-6.0,overcast clouds,83,45.99,89,3.42
Shahrud,IR,36.4182,54.9763,clear sky,43,40.78,3,2.89
Labuhan,ID,-6.8844,112.2051,overcast clouds,70,83.43,100,4.83
Port Moresby,PG,-9.4431,147.1797,light rain,89,81.82,75,5.75
Muroto,JP,33.2833,134.15,overcast clouds,49,55.33,97,7.67
Los Llanos De Aridane,ES,28.6585,-17.9182,broken clouds,99,64.13,75,5.01
Akyab,MM,20.15,92.9,clear sky,59,79.84,2,7.9
Sandwick,GB,60.0,-1.25,light snow,86,33.62,40,14.97
Sonneberg,DE,50.35,11.1667,overcast clouds,94,36.72,100,1.99
Mangrol,IN,21.1167,70.1167,clear sky,41,83.1,2,5.73
Jalu,LY,29.0331,21.5482,clear sky,39,73.47,0,8.1
Dalton,US,34.7698,-84.9702,overcast clouds,97,58.77,100,1.99
Oyugis,KE,-0.509,34.7358,overcast clouds,39,80.73,86,8.79
Harrismith,ZA,-28.2728,29.1295,overcast clouds,33,78.42,91,14.34
Maragogi,BR,-9.0122,-35.2225,few clouds,74,78.96,19,4.43
Kharan,PK,28.5833,65.4167,clear sky,21,71.31,0,3.51
Sovetskiy,RU,61.3614,63.5842,broken clouds,90,4.64,62,5.28
El Prat De Llobregat,ES,41.3278,2.0947,broken clouds,80,59.95,58,13.8
Safford,US,32.834,-109.7076,clear sky,93,55.11,0,3.44
Mobaye,CF,4.319,21.1786,broken clouds,33,91.89,56,4.56
Imbituba,BR,-28.24,-48.6703,overcast clouds,78,74.86,88,6.44
Aden,YE,12.7794,45.0367,clear sky,64,79.68,10,13.22
Saraland,US,30.8207,-88.0706,broken clouds,89,65.41,76,3.04
Mogadishu,SO,2.0371,45.3438,scattered clouds,79,85.87,40,14.97
Santa Isabel Do Rio Negro,BR,-0.4139,-65.0192,overcast clouds,99,71.94,100,2.01
Sena Madureira,BR,-9.0656,-68.6569,overcast clouds,86,72.37,100,2.37
At-Bashi,KG,41.1702,75.8106,overcast clouds,86,21.2,98,1.32
Esmeraldas,BR,-19.7625,-44.3139,overcast clouds,95,69.91,100,1.79
Hami,CN,42.8,93.45,broken clouds,37,26.65,51,4.0
Fengrun,CN,39.8333,118.1167,overcast clouds,26,32.63,100,2.48
Pangody,RU,65.85,74.4859,broken clouds,96,0.5,83,9.75
Nemuro,JP,43.3236,145.575,clear sky,56,37.53,6,16.08
Kieta,PG,-6.2167,155.6333,overcast clouds,82,79.54,96,0.4
Otane,NZ,-39.8833,176.6333,overcast clouds,72,57.0,100,4.81
The Valley,AI,18.217,-63.0578,clear sky,69,76.86,0,16.42
Chake Chake,TZ,-5.2459,39.7666,broken clouds,64,84.49,60,4.21
Juneau,US,58.3019,-134.4197,light rain,100,38.21,100,16.11
Mutata,CO,7.2441,-76.4356,broken clouds,97,70.7,73,1.23
Alghero,IT,40.5589,8.3181,few clouds,100,55.49,20,2.3
Omsukchan,RU,62.5333,155.8,overcast clouds,89,-15.86,99,0.81
Ko Samui,TH,9.5357,99.9357,scattered clouds,79,85.91,40,3.44
Ulladulla,AU,-35.35,150.4667,scattered clouds,58,68.5,49,8.57
Yarim,YE,14.298,44.3779,clear sky,22,66.31,0,4.52
Bayonne,FR,43.3333,-1.4167,overcast clouds,93,52.95,100,3.44
Skelleftea,SE,64.7507,20.9528,broken clouds,100,25.16,75,2.3
Lethem,GY,3.3803,-59.7968,scattered clouds,90,72.68,44,5.48
Sinsheim,DE,49.2529,8.8787,overcast clouds,96,40.53,99,7.38
Mackay,AU,-21.15,149.2,clear sky,77,79.68,0,8.88
Mandalgovi,MN,45.7625,106.2708,clear sky,49,10.99,0,7.81
Hare Bay,CA,48.8499,-54.0148,overcast clouds,94,31.35,100,2.51
Guerrero,MX,17.6667,-100.0,clear sky,79,61.72,9,2.57
Abu Dhabi,AE,24.4667,54.3667,clear sky,30,86.11,0,5.75
Vanderhoof,CA,54.0166,-124.0198,overcast clouds,99,13.95,100,0.89
Solnechnyy,RU,50.7214,136.6319,few clouds,81,-0.58,16,4.5
Gidole,ET,5.65,37.3667,broken clouds,31,74.43,64,4.76
Xuanzhou,CN,30.9525,118.7553,overcast clouds,80,49.42,98,7.81
Kuhdasht,IR,33.535,47.6061,clear sky,44,54.32,3,5.79
